     3.04           OBSERVATION DATA    M (MIXED)           RINEX VERSION / TYPE
Converted from JSON by json2rinex_simple.py                 PGM / RUN BY / DATE
PHONERX                      MARKER NAME                    
                                 MARKER NUMBER
        0.0000        0.0000        0.0000                          APPROX POSITION XYZ
                                                            ANTENNA: DELTA H/E/N
  4 C1C L1C D1C S1C                               SYS / # / OBS TYPES
                                                            END OF HEADER
> 1970 01 01 00 00     0.0000000  0   2
G05   -244612.658 817305283.743      -367.884        32.900
G21   -184217.969         0.000         3.567        29.700
> 1970 01 01 00 00     0.0000000  0   4
G05    -46904.928 817305653.002      -368.151        32.800
G21   -285940.847        -2.893         4.231        30.400
G11   -173672.769      -448.441       449.790        28.600
G24   -132981.639 817304394.954       631.784        26.500
> 1970 01 01 00 00     0.0000000  0   3
G05  -2745203.735 817348516.146      -367.853        32.600
G21   -285950.141        -4.211         4.515        30.400
G11   -173507.583      -627.953       450.081        28.900
> 1970 01 01 00 00     0.0000000  0   7
G05  -2445804.904 817348737.232      -367.831        32.400
G21  -3284118.452     43850.856         4.978        30.300
G11  -2871626.514     29164.880       450.407        28.800
G24  -4929226.567 817330272.583       631.325        25.000
R15   -615952.385         0.000       998.349        32.700
R09   -220642.452       124.226      -170.937        28.800
R18  -2649542.660   -300045.697       521.558        27.900
> 2015 11 15 17 00    26.0000000  0   7
G05433981608602511872.000 817349131.541      -367.507        32.200
G21433981608607669888.000     43847.694         4.210        30.200
G11433981608602087040.000     28684.600       449.497        28.700
G24433981608606025344.000 817329598.513       631.698        26.600
R15433981608604343168.000     -1079.503       997.690        33.900
R18433981608602309120.000   -300629.393       521.880        30.100
R09433981608604737216.000       307.623      -170.769        29.800
> 1970 01 01 00 00     0.0000000  0   7
G05  -5590286.026 817349471.149      -367.732        32.100
G21   -431929.881     43844.794         4.385        30.200
G11    -18540.365     28271.644       449.191        28.600
G24  -2075873.902 817329017.357       631.953        27.200
R15  -3757692.504     -2003.644       996.973        34.400
R18  -5792242.714   -301089.509       521.720        31.000
R09  -3364747.334       485.277      -170.391        29.900
> 2015 11 15 17 00    27.0000000  0   7
G05433981609173611136.000 817349839.791      -366.988        32.000
G21433981609178769920.000     43841.425         4.639        30.200
G24433981609177126592.000 817328387.140       631.350        27.500
G11433981609179183744.000     27823.342       448.962        28.500
R15433981609175445184.000     -2988.045       997.297        34.400
R18433981609173410176.000   -301638.080       521.447        31.300
R09433981609175836928.000       645.396      -170.672        30.000
> 2015 11 15 17 00    29.0000000  0   7
G05433981609485194176.000 817350213.544      -367.413        31.900
G21433981609484357440.000     43837.832         4.734        30.100
G24433981609488710592.000 817327747.724       631.293        27.700
G11433981609484771648.000     27368.125       450.398        28.400
R15433981609487029504.000     -4009.211       997.330        34.300
R18433981609484994048.000   -302153.425       521.275        31.300
R09433981609484422144.000   2998759.167      -169.924        30.000
> 1970 01 01 00 00     0.0000000  0   7
G05  -4297870.846 817350574.679      -367.105        31.900
G21  -5134250.432     43834.396         4.528        30.000
G24   -780455.402 817327129.888       631.785        27.700
G11  -4719547.225     26927.979       448.874        28.300
R15  -2461207.641     -4976.998       997.165        34.300
R18  -4497146.190   -302674.524       521.331        31.300
R09  -5069664.944   2998914.366      -169.697        30.000
> 2015 11 15 17 00    30.0000000  0   8
G05433981610075781824.000 817350942.941      -367.220        32.100
G21433981610074945856.000     43830.846         5.091        30.000
G24433981610079300224.000 817326498.839       632.471        27.800
G11433981610075360960.000     26480.110       449.267        28.100
G12433981610080036096.000      -118.249       121.149        23.100
R15433981610077619904.000     -5980.565       997.619        34.300
R18433981610075583488.000   -303203.342       521.556        31.300
R09433981610075010240.000   2999089.516      -169.642        30.000
> 2015 11 15 17 00    31.0000000  0   9
G05433885547307505472.000         0.000      -367.240        32.200
G21433981610175729152.000         0.000         5.045        29.900
G24433981610174087872.000         0.000       632.122        27.800
G11433981610176144384.000         0.000       449.889        28.000
G12433981610177821440.000         0.000       122.113        23.500
R15433981610172407616.000         0.000       997.111        34.300
R18433981610176366912.000         0.000       521.065        31.200
R09433981610175793472.000         0.000      -169.612        29.900
R03433981610177328256.000         0.000      -154.148        22.900
> 2015 11 15 17 00    31.0000000  0   7
G05433885547307505344.000        36.810      -367.116        32.200
G21433885547306669440.000        -0.399         5.002        29.800
G24433885547311024128.000       -63.042       631.335        27.800
G11433885547307084800.000       -44.879       449.809        27.900
R15433960021152175424.000      -100.638       997.222        34.300
R18433960021150138752.000       -48.121       521.286        31.200
R09433960021149565312.000         6.250      -169.412        30.000
> 2015 11 15 17 00    32.0000000  0  16
G05433885547307505024.000         0.000      -366.957        32.200
G21433885547306669376.000         0.000         5.513        29.800
G24433885547311024448.000         0.000       631.247        27.800
G11433885547307084992.000         0.000       450.033        27.700
G06433885547309742976.000         0.000       705.419        25.200
G12433885547306363392.000         0.000       123.340        23.400
R15433960021152175872.000         0.000       997.331        34.300
R18433960021150138944.000         0.000       521.728        31.200
E20433885551507773696.000         0.000       107.019        30.200
R09433960021149565120.000         0.000      -169.597        30.000
C30433885547309378560.000         0.000       254.181        28.100
C02433885547311991296.000         0.000       653.516        28.400
E29433885551506351680.000         0.000       422.643        29.100
E08433885551519762176.000         0.000       -12.561        26.800
E10433885551519510976.000         0.000       113.038        27.000
C15433885547309810752.000         0.000        97.123        25.000
> 2015 11 15 17 00    33.0000000  0  23
G05433885547307504512.000       368.055      -366.590        32.400
G21433885547306669248.000        -4.143         5.447        29.700
G24433885547311024960.000      -629.570       630.648        27.800
G11433885547307085312.000      -449.619       450.352        27.600
G06433885547309743552.000      -704.661       706.176        25.200
G12433885547306363392.000      -122.510       123.626        23.800
R15433960021152176768.000      -992.846       997.473        34.300
E20433885551507773696.000      -105.790       106.906        31.700
E29433885551506351936.000      -421.666       422.235        30.900
R18433960021150139328.000      -526.683       521.519        31.200
C02433885547311991808.000      -652.374       653.489        29.900
R09433960021149564800.000       173.279      -169.600        30.000
C30433885547309378688.000      -252.813       253.929        29.200
E10433885551519510912.000      -112.179       112.891        28.300
R19433960021149426368.000         0.000       124.357        27.300
E08433885551519761984.000        14.352       -13.711        27.100
C15433885547309810752.000       -96.025        97.189        26.200
E22433885551509445504.000       398.637      -397.764        26.500
E13433885551519814272.000         0.000       -48.619        24.900
E09433885551523250304.000         0.000       447.438        24.700
E07433885551519971200.000         0.000       155.465        22.600
E26433885551506674240.000         0.000       134.498        23.300
R03433960021151099712.000       104.027      -153.856        22.200
> 2015 11 15 17 00    34.0000000  0  24
G05433885547307503936.000       736.102      -366.922        32.500
G21433885547306669120.000        -8.513         5.603        29.700
G24433885547311025344.000     -1259.917       631.857        27.800
G11433885547307085568.000      -898.508       449.645        27.500
G06433885547309744064.000     -1409.586       706.045        25.600
G12433885547306363392.000      -244.578       122.968        24.700
G17433885547311558144.000      -550.371       551.406        23.100
R15433960021152177536.000     -1999.424       997.358        34.300
E20433885551507773632.000      -211.646       107.010        32.900
E29433885551506352192.000      -843.270       422.723        32.300
C02433885547311992256.000     -1304.732       653.472        31.000
R18433960021150139712.000     -1048.927       521.112        31.200
C30433885547309378752.000      -505.826       254.233        30.000
R09433960021149564416.000       351.571      -169.657        30.100
E10433885551519510848.000      -224.333       113.274        29.800
E22433885551509444864.000       797.422      -397.666        27.300
E08433885551519761792.000        28.831       -13.359        27.500
C15433885547309810624.000      -192.499        97.593        27.400
R19433960021149426304.000       -97.287       123.987        27.300
E09433885551523250560.000      -446.363       447.482        26.600
E13433885551519814016.000        49.534       -48.415        26.300
E26433885551506674240.000      -132.999       134.118        24.400
E07433885551519971200.000      -154.073       155.192        22.700
R03433960021151099328.000       276.308      -152.889        22.200
> 2015 11 15 17 00    35.0000000  0  24
G05433885547307503424.000      1104.006      -366.703        32.600
G21433885547306668864.000       -12.496         4.920        29.700
G24433885547311025792.000     -1891.086       632.710        27.800
G11433885547307085888.000     -1346.584       448.798        27.400
G06433885547309744640.000     -2114.081       705.408        25.600
G12433885547306363392.000      -365.921       122.110        25.400
R15433960021152178368.000     -2991.544       997.423        34.300
E20433885551507773568.000      -317.695       107.275        33.200
E29433885551506352448.000     -1265.026       422.960        32.800
C02433885547311992704.000     -1957.444       654.017        31.200
R18433960021150140032.000     -1556.427       521.749        31.200
E10433885551519510848.000      -336.770       113.707        30.200
C30433885547309378816.000      -759.208       254.696        30.000
R09433960021149564096.000       513.700      -169.508        30.100
C15433885547309810560.000      -288.182        96.418        27.800
E22433885551509444352.000      1195.742      -396.958        27.700
E08433885551519761664.000        42.671       -12.391        27.600
R19433960021149426304.000      -234.202       123.713        27.500
E09433885551523250816.000      -892.549       447.226        26.900
E13433885551519813824.000        98.395       -47.393        26.800
E26433885551506674176.000      -265.287       133.061        24.400
E07433885551519971136.000      -307.906       154.843        23.300
R03433960021151098944.000       486.655      -151.312        22.100
C27433885547311212096.000       213.697      -212.253        19.300
> 2015 11 15 17 00    36.0000000  0  25
G05433885547307502912.000      1471.819      -366.640        32.800
G21433885547306668736.000       -16.665         5.388        29.600
G24433885547311026304.000     -2521.479       631.129        27.800
G11433885547307086144.000     -1794.705       449.270        27.200
G06433885547309745152.000     -2818.330       705.253        25.700
G12433885547306363328.000      -487.231       122.419        25.700
G25433885547307584192.000       238.179      -237.073        19.900
R15433960021152179200.000     -3986.526       997.384        34.200
E20433885551507773440.000      -423.810       107.273        33.300
E29433885551506352640.000     -1686.781       422.881        33.100
C02433885547311993216.000     -2610.001       653.605        31.400
R18433960021150140416.000     -2077.948       521.491        31.200
E10433885551519510784.000      -448.566       112.602        30.300
R09433960021149563712.000       691.282      -169.545        30.100
C30433885547309378880.000     -1012.469       254.328        30.000
C15433885547309810496.000      -383.880        96.832        27.900
E22433885551509443776.000      1594.240      -397.461        27.700
E08433885551519761408.000        56.673       -12.957        27.600
E13433885551519813632.000       147.277       -47.767        26.900
E09433885551523251136.000     -1338.684       447.235        26.900
E26433885551506674176.000      -397.849       133.825        24.400
R04433960021151959808.000         0.000      -493.293        22.900
E07433885551519971136.000      -461.867       155.150        23.300
R03433960021151098688.000       608.293      -151.776        22.100
C27433885547311211776.000       426.618      -211.794        19.600
> 2015 11 15 17 00    37.0000000  0  24
G05433885547307502400.000      1839.583      -366.756        32.900
G21433885547306668608.000       -21.004         5.550        29.600
G24433885547311026816.000     -3150.365       629.260        27.800
G12433885547306363264.000      -608.207       121.935        25.900
G11433885547307086464.000     -2243.687       450.539        27.200
G06433885547309745728.000     -3522.383       705.081        25.900
G25433885547307583808.000       476.368      -237.063        20.800
R15433960021152180032.000     -4987.517       997.330        34.200
E29433885551506352960.000     -2108.438       422.734        33.100
E20433885551507773376.000      -529.938       107.261        33.300
C02433885547311993728.000     -3262.605       653.754        31.500
R18433960021150140736.000     -2598.325       521.255        31.100
E10433885551519510720.000      -560.392       112.966        30.300
C30433885547309379008.000     -1265.675       254.304        30.000
C15433885547309810432.000      -479.505        96.714        27.900
E22433885551509443200.000      1992.334      -396.766        27.700
E08433885551519761280.000        70.041       -11.925        27.500
E13433885551519813376.000       196.780       -48.687        26.900
E09433885551523251392.000     -1784.685       447.060        26.900
E26433885551506674112.000      -530.909       134.435        24.300
E07433885551519971136.000      -616.088       155.478        23.200
R04433960021151959104.000       525.133      -493.336        22.800
R03433960021151098368.000       733.363      -151.557        22.000
C27433885547311211392.000       639.453      -211.666        19.900
> 2015 11 15 17 00    38.0000000  0  25
G05433885547307501888.000      2207.357      -366.605        32.900
G21433885547306668480.000       -25.184         5.227        29.500
G24433885547311027200.000     -3779.872       630.942        27.800
G12433885547306363264.000      -729.701       122.880        26.100
G11433885547307086720.000     -2692.523       449.889        27.100
G06433885547309746240.000     -4226.151       704.750        26.000
G25433885547307583360.000       715.045      -237.794        20.800
R15433960021152180928.000     -5985.217       997.311        34.200
E29433885551506353216.000     -2530.096       422.784        33.100
E20433885551507773312.000      -636.148       107.378        33.200
C02433885547311994240.000     -3915.092       653.553        31.500
R18433960021150141120.000     -3122.135       521.172        31.100
E10433885551519510656.000      -672.381       113.197        30.300
C30433885547309379136.000     -1519.356       255.044        29.900
C15433885547309810432.000      -575.652        97.535        27.900
E22433885551509442624.000      2390.592      -397.214        27.600
E08433885551519761088.000        83.592       -12.515        27.500
E13433885551519813184.000       245.553       -47.281        26.900
E09433885551523251712.000     -2230.307       446.559        26.800
E19433885551507475456.000         0.000      -285.300        25.000
E26433885551506674112.000      -664.330       134.728        24.300
E07433885551519971136.000      -770.548       155.706        23.200
R04433960021151958528.000       979.725      -494.329        22.800
R03433960021151098048.000       889.055      -151.648        21.900
C27433885547311211008.000       852.592      -212.165        20.000
> 2015 11 15 17 00    39.0000000  0  25
G05433885547307501312.000      2575.099      -366.601        33.100
G21433885547306668288.000       -29.933         6.160        29.500
G24433885547311027712.000     -4410.318       632.042        27.700
G12433885547306363200.000      -851.652       123.306        26.200
G06433885547309746816.000     -4929.994       705.007        26.000
G11433885547307087040.000     -3141.164       449.668        27.000
G25433885547307582976.000       953.431      -237.114        20.800
R15433960021152181696.000     -6973.474       997.260        34.100
E29433885551506353472.000     -2951.692       422.692        33.200
E20433885551507773312.000      -742.409       107.413        33.200
C02433885547311994688.000     -4567.208       653.056        31.500
R18433960021150141504.000     -3636.360       520.955        31.100
E10433885551519510656.000      -784.839       113.819        30.300
C30433885547309379200.000     -1772.883       254.576        29.900
C15433885547309810304.000      -671.408        96.687        28.000
E22433885551509442048.000      2789.608      -398.269        27.600
E08433885551519760960.000        98.136       -13.915        27.400
E19433885551507475072.000       286.448      -285.322        26.000
E13433885551519812992.000       293.923       -47.043        26.900
E09433885551523251968.000     -2676.416       447.478        26.700
E26433885551506674112.000      -797.877       134.735        24.200
R04433960021151957824.000      1470.803      -493.970        22.700
E07433885551519971136.000      -924.523       154.858        23.100
R03433960021151097728.000      1052.760      -154.836        21.800
C27433885547311210624.000      1065.937      -212.322        20.000
> 2015 11 15 17 00    40.0000000  0  25
G05433885547307500800.000      2942.714      -366.424        33.300
G21433885547306668096.000       -34.746         5.970        29.400
G24433885547311028160.000     -5040.928       631.817        27.700
G12433885547306363200.000      -973.294       122.613        26.300
G06433885547309747264.000     -5634.035       705.265        26.100
G11433885547307087296.000     -3590.275       450.474        26.900
G25433885547307582592.000      1192.103      -237.689        20.900
R15433960021152182528.000     -7966.452       997.362        34.000
E29433885551506353728.000     -3373.372       422.848        33.200
E20433885551507773248.000      -848.789       107.565        33.200
C02433885547311995200.000     -5219.527       653.547        31.600
R18433960021150141824.000     -4150.727       521.128        31.100
E10433885551519510528.000      -896.912       113.005        30.300
C30433885547309379264.000     -2026.079       254.158        29.800
C15433885547309810240.000      -767.034        96.686        28.100
E19433885551507474560.000       572.995      -285.470        27.300
E22433885551509441536.000      3188.018      -396.979        27.600
E08433885551519760704.000       112.655       -13.379        27.300
E13433885551519812736.000       342.681       -47.825        26.800
E09433885551523252288.000     -3122.202       446.751        26.700
E26433885551506674048.000      -931.823       135.272        24.200
R04433960021151957184.000      1981.341      -492.377        22.600
E07433885551519971136.000     -1077.987       154.334        23.000
R03433960021151097408.000      1228.911      -155.119        21.700
C27433885547311210240.000      1279.790      -212.980        20.000
> 2015 11 15 17 00    41.0000000  0  26
G05433885547307500288.000      3310.243      -366.361        33.500
G21433885547306667968.000       -39.135         5.303        29.300
G24433885547311028672.000     -5670.653       630.409        27.700
G12433885547306363136.000     -1094.844       122.630        26.400
G06433885547309747840.000     -6338.774       706.214        26.300
G11433885547307087616.000     -4039.505       450.414        26.800
G25433885547307582208.000      1431.060      -237.972        20.900
R15433960021152183360.000     -8951.990       997.356        34.000
E29433885551506353984.000     -3795.045       422.795        33.200
E20433885551507773184.000      -955.284       107.678        33.100
C02433885547311995648.000     -5872.045       653.743        31.700
R18433960021150142208.000     -4670.245       520.879        31.100
E10433885551519510464.000     -1008.865       113.019        30.400
C30433885547309379328.000     -2279.291       254.345        29.800
C15433885547309810176.000      -862.692        96.802        28.200
E19433885551507474112.000       858.703      -284.162        27.900
E22433885551509440960.000      3587.069      -398.246        27.500
E08433885551519760576.000       126.704       -12.690        27.300
E13433885551519812544.000       391.454       -47.655        26.800
E09433885551523252544.000     -3568.185       447.207        26.600
E26433885551506674048.000     -1066.161       135.661        24.200
R04433960021151956544.000      2479.002      -493.808        23.000
E07433885551519971136.000     -1231.472       154.622        22.900
R03433960021151097088.000      1373.441      -154.723        21.600
C27433885547311209856.000      1494.079      -213.382        20.000
R16433960021148779200.000     -1301.164       619.188        17.100
> 2015 11 15 17 00    42.0000000  0  26
G05433885547307499712.000      3677.743      -366.358        33.600
G21433885547306667840.000       -42.870         4.534        29.200
G24433885547311029056.000     -6300.682       631.307        27.700
G06433885547309748416.000     -7042.524       704.382        26.500
G12433885547306363072.000     -1216.398       122.683        26.400
G11433885547307087872.000     -4488.795       450.446        26.700
G25433885547307581760.000      1670.505      -238.564        20.900
E29433885551506354240.000     -4216.667       422.723        33.200
R15433960021152184192.000     -9960.136       997.265        33.900
E20433885551507773120.000     -1061.853       107.733        33.100
C02433885547311996160.000     -6524.440       653.460        31.700
R18433960021150142528.000     -5197.776       521.508        31.000
E10433885551519510400.000     -1120.805       113.061        30.500
C30433885547309379456.000     -2532.824       254.819        29.700
E19433885551507473728.000      1145.124      -285.652        28.200
C15433885547309810112.000      -958.842        97.521        28.300
E22433885551509440384.000      3985.844      -397.510        27.500
E13433885551519812352.000       439.893       -47.147        26.800
E08433885551519760384.000       141.044       -13.358        27.200
E09433885551523252800.000     -4014.476       447.571        26.600
E26433885551506673920.000     -1200.814       135.937        24.200
R04433960021151955904.000      2972.656      -493.321        23.300
E07433885551519971136.000     -1385.213       154.995        22.800
R03433960021151096704.000      1579.211      -155.075        21.500
C27433885547311209472.000      1708.583      -213.484        20.000
R16433960021148779648.000     -1894.228       619.331        18.100
> 2015 11 15 17 00    43.0000000  0  26
G05433885547307499200.000      4045.135      -366.213        33.800
G21433885547306667648.000       -47.158         5.691        29.200
G24433885547311029568.000     -6930.831       631.334        27.600
G06433885547309748928.000     -7746.235       704.817        26.600
G12433885547306363072.000     -1338.446       123.420        26.500
G11433885547307088192.000     -4937.967       450.240        26.600
G25433885547307581376.000      1909.272      -237.301        20.900
E29433885551506354496.000     -4638.294       422.755        33.400
R15433960021152185024.000    -10960.554       997.361        33.800
E20433885551507773056.000     -1168.578       107.929        33.100
C02433885547311996672.000     -7177.227       654.110        31.800
R18433960021150142912.000     -5713.861       521.500        31.000
E10433885551519510400.000     -1232.315       112.419        30.600
C30433885547309379520.000     -2786.414       254.745        29.700
E19433885551507473216.000      1432.003      -285.981        28.500
C15433885547309810048.000     -1055.149        97.512        28.400
E22433885551509439872.000      4384.705      -397.777        27.500
E13433885551519812096.000       488.075       -46.926        26.800
E08433885551519760192.000       154.521       -11.920        27.200
E09433885551523253120.000     -4460.418       446.894        26.600
E26433885551506673920.000     -1334.931       134.975        24.400
R04433960021151955200.000      3456.866      -493.296        23.500
E07433885551519971136.000     -1539.551       155.763        22.700
R03433960021151096384.000      1746.491      -154.096        21.400
C27433885547311209152.000      1923.104      -213.404        19.900
R16433960021148780160.000     -2602.616       620.660        18.700
> 2015 11 15 17 00    44.0000000  0  26
G05433885547307498624.000      4412.504      -366.229        33.900
G21433885547306667456.000       -52.372         6.803        29.100
G24433885547311030016.000     -7560.997       631.301        27.600
G06433885547309749504.000     -8450.217       705.243        26.600
G12433885547306362944.000     -1460.400       123.034        26.600
G11433885547307088448.000     -5386.568       449.441        26.500
G25433885547307580992.000      2147.901      -237.434        21.100
E29433885551506354752.000     -5059.912       422.739        33.400
R15433960021152185856.000    -11951.244       997.246        33.800
E20433885551507773056.000     -1275.299       107.844        33.100
C02433885547311997120.000     -7829.761       653.532        31.800
E10433885551519510336.000     -1344.296       113.345        30.800
R18433960021150143232.000     -6247.687       521.187        31.000
C30433885547309379648.000     -3039.834       254.460        29.700
E19433885551507472768.000      1718.366      -284.980        28.600
C15433885547309809984.000     -1151.168        97.001        28.400
E22433885551509439296.000      4783.237      -397.242        27.500
E13433885551519811904.000       537.137       -48.377        26.700
E08433885551519760000.000       168.036       -12.407        27.100
E09433885551523253376.000     -4906.562       447.371        26.500
E26433885551506673920.000     -1469.486       135.900        24.500
R04433960021151954560.000      3957.389      -494.146        23.700
E07433885551519971072.000     -1694.883       156.954        22.600
C27433885547311208768.000      2137.662      -213.450        20.000
R03433960021151096128.000      1863.120      -153.762        21.300
R16433960021148780672.000     -3240.178       622.260        18.800
> 2015 11 15 17 00    45.0000000  0  26
G05433885547307498176.000      4779.742      -366.048        34.000
G21433885547306667328.000       -57.511         6.228        29.000
G24433885547311030528.000     -8191.514       631.818        27.600
G12433885547306362944.000     -1582.369       123.102        26.600
G06433885547309750016.000     -9154.881       706.130        26.600
G11433885547307088768.000     -5835.514       450.245        26.400
G25433885547307580544.000      2386.631      -237.654        21.400
E29433885551506355008.000     -5481.588       422.831        33.400
R15433960021152186688.000    -12946.511       997.386        33.700
E20433885551507772992.000     -1382.149       108.041        33.000
C02433885547311997632.000     -8482.289       653.651        31.900
E10433885551519510272.000     -1456.305       113.147        31.100
R18433960021150143616.000     -6773.788       521.103        30.900
C30433885547309379776.000     -3293.309       254.630        29.600
E19433885551507472320.000      2004.649      -285.116        28.700
C15433885547309809920.000     -1247.426        97.504        28.400
E22433885551509438720.000      5182.109      -397.916        27.700
E13433885551519811712.000       586.241       -47.998        26.700
E09433885551523253696.000     -5352.747       447.332        26.500
E08433885551519759872.000       181.736       -12.668        27.000
E26433885551506673856.000     -1604.015       135.642        24.600
R04433960021151953920.000      4453.332      -493.045        23.900
E07433885551519971072.000     -1850.820       157.366        22.500
C27433885547311208320.000      2352.715      -214.175        20.000
R03433960021151095808.000      1995.488      -153.793        21.100
R16433960021148781120.000     -3867.867       623.201        18.800
> 2015 11 15 17 00    46.0000000  0  26
G05433885547307497600.000      5146.873      -365.950        34.200
G21433885547306667200.000       -62.903         6.645        29.000
G24433885547311030912.000     -8821.141       630.307        27.600
G06433885547309750592.000     -9858.529       704.266        26.700
G12433885547306362880.000     -1704.286       123.017        26.700
G11433885547307089024.000     -6284.338       449.888        26.300
G25433885547307580224.000      2625.548      -237.885        21.400
E29433885551506355264.000     -5903.251       422.783        33.600
E20433885551507772864.000     -1489.093       108.117        33.000
R15433960021152187520.000    -13950.221       997.333        33.600
C02433885547311998144.000     -9135.272       654.338        31.900
E10433885551519510208.000     -1568.323       113.149        31.400
R18433960021150144000.000     -7284.864       521.378        30.900
C30433885547309379840.000     -3547.079       255.043        29.600
E19433885551507471808.000      2290.738      -284.866        28.800
C15433885547309809856.000     -1343.530        97.153        28.500
E22433885551509438144.000      5580.973      -397.733        27.900
E13433885551519811456.000       635.097       -47.606        26.700
E09433885551523253952.000     -5798.912       447.281        26.500
E08433885551519759680.000       194.964       -11.865        27.000
E26433885551506673856.000     -1738.699       135.887        24.700
R04433960021151953152.000      4972.456      -494.042        24.000
E07433885551519971072.000     -2006.400       156.527        22.400
C27433885547311208000.000      2568.333      -214.774        20.100
R03433960021151095488.000      2152.895      -153.077        21.000
R16433960021148781568.000     -4484.825       623.346        19.100
> 2015 11 15 17 00    47.0000000  0  26
G05433885547307497088.000      5513.966      -365.958        34.300
G21433885547306667008.000       -68.428         6.707        28.900
G24433885547311031424.000     -9450.408       630.203        27.500
G06433885547309751104.000    -10561.451       703.675        26.700
G12433885547306362816.000     -1826.416       123.353        26.700
G11433885547307089216.000     -6733.213       450.016        26.200
G25433885547307579776.000      2863.785      -236.781        21.600
E29433885551506355520.000     -6324.903       422.762        33.700
E20433885551507772800.000     -1596.123       108.188        33.000
R15433960021152188352.000    -14935.337       997.391        33.500
C02433885547311998592.000     -9788.072       653.823        32.000
E10433885551519510208.000     -1680.229       112.965        31.600
R18433960021150144320.000     -7801.098       521.237        30.900
C30433885547309379904.000     -3801.182       255.385        29.600
E19433885551507471424.000      2576.614      -284.653        28.800
C15433885547309809792.000     -1439.512        97.036        28.500
E22433885551509437568.000      5980.023      -398.027        28.000
E13433885551519811264.000       683.454       -46.992        26.700
E09433885551523254208.000     -6245.084       447.291        26.600
E08433885551519759488.000       208.131       -12.021        26.900
E26433885551506673792.000     -1873.518       136.003        24.800
R04433960021151952512.000      5443.353      -494.047        24.200
E07433885551519971072.000     -2161.554       156.057        22.400
C27433885547311207616.000      2783.368      -213.627        20.200
R16433960021148781952.000     -5051.996       622.742        19.200
R03433960021151095168.000      2261.790      -152.705        20.900
> 2015 11 15 17 00    48.0000000  0  26
G05433885547307496512.000      5880.940      -365.785        34.400
G21433885547306666816.000       -74.183         7.000        28.900
G24433885547311031872.000    -10080.068       630.985        27.500
G06433885547309751680.000    -11264.627       704.433        26.700
G12433885547306362816.000     -1948.874       123.751        26.700
G11433885547307089536.000     -7181.947       449.792        26.100
G25433885547307579328.000      3102.148      -237.296        21.800
E29433885551506355712.000     -6746.599       422.847        33.800
E20433885551507772736.000     -1703.290       108.364        33.000
R15433960021152189184.000    -15934.461       997.338        33.500
C02433885547311999104.000    -10440.953       654.051        32.100
E10433885551519510144.000     -1792.132       113.031        31.800
R18433960021150144704.000     -8318.613       520.888        30.800
C30433885547309379968.000     -4054.860       254.595        29.700
E19433885551507470912.000      2862.626      -284.951        28.800
C15433885547309809664.000     -1536.096        98.015        28.500
E22433885551509436992.000      6378.526      -397.100        28.200
E13433885551519811072.000       731.705       -47.069        26.700
E09433885551523254464.000     -6691.087       447.047        26.600
E08433885551519759296.000       221.744       -12.706        26.900
E26433885551506673792.000     -2008.275       135.855        25.000
R04433960021151951872.000      5916.688      -494.308        24.500
E07433885551519971072.000     -2315.925       155.110        22.300
C27433885547311207168.000      2997.544      -212.617        20.200
R16433960021148782336.000     -5641.482       621.596        19.800
R03433960021151094848.000      2427.354      -152.220        20.700
> 2015 11 15 17 00    49.0000000  0  26
G05433885547307496000.000      6247.792      -365.664        34.500
G21433885547306666688.000       -79.603         6.378        28.800
G24433885547311032384.000    -10709.949       631.117        27.500
G06433885547309752128.000    -11968.761       705.738        26.800
G12433885547306362752.000     -2071.956       124.520        26.700
G11433885547307089792.000     -7630.976       450.303        26.000
G25433885547307579008.000      3340.308      -236.932        21.800
E29433885551506356032.000     -7168.353       422.909        33.900
E20433885551507772672.000     -1810.596       108.502        33.000
R15433960021152189952.000    -16930.731       997.469        33.400
C02433885547311999552.000    -11093.932       654.153        32.200
E10433885551519510080.000     -1904.247       113.347        31.900
R18433960021150145024.000     -8855.016       521.189        30.800
C30433885547309380032.000     -4308.803       255.202        29.700
E19433885551507470464.000      3148.624      -284.865        28.900
E22433885551509436416.000      6778.079      -398.953        28.400
C15433885547309809600.000     -1632.525        97.478        28.500
E09433885551523254784.000     -7137.223       447.329        26.700
E13433885551519810816.000       780.249       -47.564        26.700
E08433885551519759104.000       235.006       -11.960        26.800
E26433885551506673728.000     -2143.917       137.211        25.100
R04433960021151951232.000      6402.758      -492.692        24.700
E07433885551519971008.000     -2469.813       154.771        22.200
R16433960021148782848.000     -6271.889       622.155        20.400
C27433885547311206848.000      3211.257      -212.355        20.200
R03433960021151094528.000      2567.735      -152.783        20.600
> 2015 11 15 17 00    50.0000000  0  26
G05433885547307495488.000      6614.581      -365.631        34.700
G21433885547306666560.000       -85.270         6.916        28.800
G24433885547311032768.000    -11339.645       630.730        27.500
G06433885547309752704.000    -12672.353       704.447        26.800
G12433885547306362688.000     -2195.097       124.297        26.600
G11433885547307090112.000     -8080.300       450.598        25.900
G25433885547307578560.000      3578.533      -237.132        21.800
E29433885551506356288.000     -7590.087       422.850        34.100
E20433885551507772672.000     -1917.945       108.497        33.100
R15433960021152190848.000    -17924.568       997.415        33.400
C02433885547312000064.000    -11746.894       654.080        32.300
E10433885551519510016.000     -2016.098       112.846        32.000
R18433960021150145408.000     -9365.377       521.907        30.800
C30433885547309380160.000     -4563.073       255.559        29.700
E19433885551507470080.000      3434.939      -285.346        29.000
E22433885551509435840.000      7177.572      -398.335        28.600
C15433885547309809536.000     -1729.140        97.834        28.500
E09433885551523255040.000     -7583.077       446.839        26.800
E13433885551519810624.000       828.972       -47.686        26.700
E08433885551519758912.000       248.568       -12.586        26.700
E26433885551506673728.000     -2279.453       136.609        25.300
R04433960021151950592.000      6898.417      -493.605        24.800
E07433885551519971008.000     -2623.763       155.108        22.200
R16433960021148783296.000     -6859.945       622.855        21.000
C27433885547311206464.000      3424.084      -211.257        20.200
R03433960021151094272.000      2734.443      -151.680        20.400
> 2015 11 15 17 00    51.0000000  0  26
G05433885547307494912.000      6981.235      -365.461        34.900
G21433885547306666368.000       -91.040         6.949        28.800
G24433885547311033280.000    -11969.422       630.943        27.600
G06433885547309753216.000    -13375.165       703.548        26.800
G12433885547306362688.000     -2318.366       124.458        26.600
G11433885547307090368.000     -8529.673       450.522        25.800
G25433885547307578112.000      3816.402      -236.565        21.900
E29433885551506356544.000     -8011.852       422.906        34.200
E20433885551507772608.000     -2025.459       108.723        33.200
R15433960021152191680.000    -18919.836       997.515        33.300
C02433885547312000576.000    -12399.973       654.263        32.400
E10433885551519510016.000     -2128.111       113.220        32.000
R18433960021150145792.000     -9885.038       521.155        30.700
C30433885547309380288.000     -4817.380       255.452        29.700
E19433885551507469632.000      3720.890      -284.643        29.000
E22433885551509435264.000      7576.950      -398.195        28.700
C15433885547309809472.000     -1825.887        97.938        28.500
E13433885551519810368.000       878.248       -48.427        26.700
E09433885551523255360.000     -8028.914       446.955        26.800
E08433885551519758720.000       262.423       -12.876        26.700
E26433885551506673728.000     -2414.666       136.177        25.400
R04433960021151949952.000      7413.390      -494.172        24.800
E07433885551519971008.000     -2778.185       155.784        22.200
R16433960021148783744.000     -7487.061       622.816        21.300
C27433885547311206144.000      3635.963      -210.279        20.200
R03433960021151093888.000      2921.040      -153.231        20.300
> 2015 11 15 17 00    52.0000000  0  26
G05433885547307494464.000      7347.882      -365.518        35.000
G21433885547306666240.000       -96.855         6.963        28.700
G24433885547311033728.000    -12598.780       630.273        27.600
G06433885547309753792.000    -14078.462       704.666        26.800
G12433885547306362624.000     -2441.506       124.203        26.500
G11433885547307090688.000     -8978.803       450.134        25.700
G25433885547307577792.000      4054.465      -237.034        22.000
E29433885551506356800.000     -8433.680       422.987        34.300
E20433885551507772544.000     -2133.008       108.694        33.200
R15433960021152192512.000    -19925.835       997.378        33.200
C02433885547312001024.000    -13053.038       654.182        32.400
E10433885551519509888.000     -2240.334       113.454        32.000
R18433960021150146048.000    -10401.837       521.446        30.700
C30433885547309380352.000     -5071.783       255.577        29.700
E19433885551507469120.000      4006.792      -284.752        29.000
E22433885551509434688.000      7976.377      -398.325        28.700
C15433885547309809408.000     -1921.665        96.420        28.500
E09433885551523255616.000     -8475.329       447.829        26.800
E13433885551519810176.000       926.907       -47.224        26.700
E08433885551519758592.000       276.116       -12.486        26.600
E26433885551506673664.000     -2549.802       136.224        25.400
R04433960021151949312.000      7891.448      -493.718        24.800
R16433960021148784128.000     -8045.784       622.263        21.300
E07433885551519971008.000     -2932.407       155.248        22.100
C27433885547311205696.000      3847.502      -210.243        20.200
R03433960021151093632.000      3051.118      -152.502        20.200
> 2015 11 15 17 00    53.0000000  0  26
G05433885547307493888.000      7714.356      -365.260        35.200
G21433885547306666048.000      -103.037         7.492        28.700
G24433885547311034240.000    -13228.143       630.492        27.700
G06433885547309754368.000    -14782.343       705.298        26.800
G12433885547306362624.000     -2565.047       124.867        26.500
G11433885547307090944.000     -9428.476       451.070        25.500
G25433885547307577344.000      4292.537      -236.951        22.100
E29433885551506357056.000     -8855.463       422.886        34.500
E20433885551507772480.000     -2240.714       108.909        33.200
C02433885547312001536.000    -13706.177       654.303        32.500
R15433960021152193344.000    -20920.530       997.481        33.200
E10433885551519509824.000     -2352.592       113.402        32.000
R18433960021150146432.000    -10922.787       521.324        30.600
C30433885547309380416.000     -5326.237       255.606        29.600
E19433885551507468672.000      4292.332      -284.232        28.900
E22433885551509434240.000      8375.801      -398.296        28.700
C15433885547309809344.000     -2018.423        98.374        28.400
E09433885551523255872.000     -8921.685       447.452        26.800
E13433885551519809984.000       974.953       -46.614        26.700
E08433885551519758464.000       290.189       -13.136        26.600
E26433885551506673664.000     -2684.831       136.101        25.600
R04433960021151948608.000      8412.001      -493.164        24.700
R16433960021148784640.000     -8703.234       622.117        21.400
E07433885551519971008.000     -3086.075       154.516        22.000
C27433885547311205312.000      4058.852      -210.130        20.200
R03433960021151093248.000      3211.673      -150.791        20.100
> 2015 11 15 17 00    54.0000000  0  26
G05433885547307493376.000      8080.803      -365.308        35.400
G21433885547306665856.000      -108.833         6.728        28.700
G24433885547311034624.000    -13857.959       631.168        27.800
G06433885547309754880.000    -15485.888       704.503        26.800
G12433885547306362560.000     -2689.044       125.351        26.500
G11433885547307091264.000     -9877.947       450.496        25.400
G25433885547307577024.000      4530.367      -236.582        22.200
E29433885551506357312.000     -9277.250       422.915        34.700
E20433885551507772480.000     -2348.501       108.955        33.200
C02433885547312001984.000    -14359.338       654.298        32.600
R15433960021152194112.000    -21904.495       997.501        33.100
E10433885551519509760.000     -2464.453       112.789        31.900
R18433960021150146816.000    -11447.170       520.277        30.600
C30433885547309380544.000     -5580.615       255.465        29.600
E19433885551507468288.000      4577.782      -284.279        28.900
E22433885551509433664.000      8775.246      -398.328        28.700
C15433885547309809280.000     -2115.512        98.381        28.400
E09433885551523256192.000     -9367.012       445.938        26.800
E13433885551519809728.000      1023.166       -47.169        26.700
E08433885551519758208.000       304.160       -12.795        26.500
E26433885551506673600.000     -2819.673       135.874        25.700
R04433960021151947968.000      8899.931      -492.256        24.700
R16433960021148785088.000     -9298.157       621.963        21.700
E07433885551519971008.000     -3239.782       154.854        21.900
C27433885547311204992.000      4270.246      -210.290        20.200
R03433960021151092992.000      3351.052      -150.986        20.100
> 2015 11 15 17 00    55.0000000  0  26
G05433885547307492800.000      8447.155      -365.179        35.400
G21433885547306665728.000      -115.415         8.101        28.600
G24433885547311035136.000    -14487.635       630.732        27.800
G06433885547309755456.000    -16190.463       706.215        26.800
G12433885547306362560.000     -2813.149       125.285        26.400
G11433885547307091520.000    -10327.415       450.592        25.300
G25433885547307576576.000      4768.079      -236.527        22.200
E29433885551506357568.000     -9699.006       422.866        34.700
E20433885551507772416.000     -2456.376       109.045        33.200
C02433885547312002496.000    -15012.558       654.374        32.600
R15433960021152195008.000    -22896.615       997.441        33.100
E10433885551519509760.000     -2576.181       112.787        31.900
R18433960021150147200.000    -11969.121       521.030        30.600
C30433885547309380608.000     -5834.992       255.503        29.500
E19433885551507467840.000      4863.851      -285.252        28.900
E22433885551509433088.000      9175.083      -398.907        28.700
C15433885547309809216.000     -2212.368        97.866        28.400
E09433885551523256448.000     -9811.692       445.483        26.800
E13433885551519809536.000      1071.248       -46.892        26.700
E08433885551519758080.000       318.461       -13.340        26.500
E26433885551506673600.000     -2954.661       136.188        25.800
R04433960021151947328.000      9399.023      -492.676        24.600
R16433960021148785472.000     -9917.261       622.228        21.700
E07433885551519970944.000     -3393.637       155.053        21.800
C27433885547311204608.000      4481.974      -210.768        20.200
R03433960021151092672.000      3489.000      -151.389        20.000
> 2015 11 15 17 00    56.0000000  0  26
G05433885547307492288.000      8813.415      -365.097        35.400
G21433885547306665536.000      -122.403         8.308        28.500
G24433885547311035584.000    -15116.870       630.130        27.800
G06433885547309755968.000    -16895.454       706.315        26.800
G12433885547306362496.000     -2937.106       124.999        26.400
G11433885547307091840.000    -10777.160       450.999        25.200
G25433885547307576128.000      5005.847      -236.680        22.200
E29433885551506357824.000    -10120.805       422.936        34.700
E20433885551507772352.000     -2564.362       109.156        33.200
C02433885547312003008.000    -15665.803       654.373        32.600
R15433960021152195840.000    -23900.045       997.466        33.000
E10433885551519509696.000     -2687.640       112.440        31.900
R18433960021150147456.000    -12471.334       521.607        30.500
C30433885547309380672.000     -6089.316       255.413        29.400
E22433885551509432512.000      9575.072      -398.949        28.700
E19433885551507467328.000      5150.046      -285.143        28.900
C15433885547309809088.000     -2308.950        97.560        28.300
E09433885551523256768.000    -10256.497       445.982        26.700
E13433885551519809344.000      1118.760       -46.110        26.600
E26433885551506673536.000     -3090.563       137.474        25.800
E08433885551519757888.000       332.303       -12.497        26.400
R04433960021151946624.000      9873.355      -493.531        24.500
R16433960021148785920.000    -10557.119       623.330        21.700
E07433885551519970944.000     -3546.749       153.857        21.700
C27433885547311204160.000      4693.657      -210.545        20.200
R03433960021151092352.000      3653.841      -150.802        19.900
> 2015 11 15 17 00    57.0000000  0  26
G05433885547307491712.000      9179.630      -365.064        35.400
G24433885547311036096.000    -15746.450       630.882        27.800
G21433885547306665408.000      -130.019         9.060        28.500
G06433885547309756544.000    -17600.158       705.689        26.800
G12433885547306362368.000     -3060.704       124.547        26.300
G11433885547307092096.000    -11226.765       450.664        25.000
G25433885547307575680.000      5244.038      -237.273        22.100
E29433885551506358080.000    -10542.586       422.901        34.700
E20433885551507772224.000     -2672.421       109.226        33.200
C02433885547312003456.000    -16319.067       654.403        32.600
R15433960021152196608.000    -24897.030       997.489        32.900
E10433885551519509632.000     -2799.423       113.075        31.800
R18433960021150147840.000    -13001.726       520.477        30.500
E22433885551509431936.000      9974.668      -398.270        28.600
C30433885547309380736.000     -6343.392       255.082        29.300
E19433885551507466880.000      5436.019      -284.732        28.800
C15433885547309809024.000     -2405.729        98.008        28.300
E09433885551523257024.000    -10701.684       446.508        26.700
E13433885551519809088.000      1167.022       -47.509        26.600
E26433885551506673536.000     -3226.551       137.160        25.800
E08433885551519757696.000       345.700       -12.045        26.300
R04433960021151945984.000     10378.742      -494.625        24.500
R16433960021148786432.000    -11200.547       623.387        21.800
E07433885551519970944.000     -3699.403       153.554        21.600
C27433885547311203840.000      4905.293      -210.482        20.200
R03433960021151091968.000      3808.245      -151.284        19.900
> 2015 11 15 17 00    58.0000000  0  26
G05433885547307491200.000      9545.724      -364.906        35.500
G24433885547311036480.000    -16376.255       631.043        27.800
G21433885547306665216.000      -136.955         7.722        28.400
G06433885547309756992.000    -18304.290       704.972        26.700
G12433885547306362368.000     -3183.881       124.093        26.300
G11433885547307092416.000    -11676.789       451.360        24.900
G25433885547307575360.000      5483.086      -238.350        22.000
E29433885551506358336.000    -10964.406       422.965        34.600
E20433885551507772160.000     -2780.624       109.401        33.100
C02433885547312003968.000    -16972.423       654.529        32.600
R15433960021152197504.000    -25912.329       997.994        32.800
E10433885551519509568.000     -2911.631       113.545        31.800
R18433960021150148224.000    -13519.671       521.597        30.400
E22433885551509431360.000     10373.505      -397.332        28.600
C30433885547309380864.000     -6598.074       256.109        29.300
E19433885551507466432.000      5721.135      -283.561        28.700
C15433885547309808960.000     -2502.765        98.290        28.200
E09433885551523257280.000    -11147.067       446.607        26.700
E13433885551519808896.000      1216.052       -48.288        26.600
E26433885551506673536.000     -3362.260       136.697        25.900
E08433885551519757504.000       358.775       -11.788        26.300
R04433960021151945344.000     10895.290      -494.995        24.400
R16433960021148786944.000    -11816.074       622.539        22.000
E07433885551519970944.000     -3852.310       154.159        21.500
C27433885547311203456.000      5117.084      -210.743        20.200
R03433960021151091584.000      3998.848      -152.147        19.800
> 2015 11 15 17 00    59.0000000  0  26
G05433885547307490624.000      9911.721      -364.823        35.600
G24433885547311036992.000    -17006.019       630.869        27.800
G21433885547306665088.000      -143.429         7.369        28.300
G06433885547309757568.000    -19008.627       705.566        26.700
G12433885547306362304.000     -3307.353       124.746        26.300
G11433885547307092672.000    -12127.149       451.654        24.800
G25433885547307574912.000      5721.845      -237.489        22.000
E29433885551506358592.000    -11386.227       422.948        34.600
E20433885551507772096.000     -2888.919       109.467        33.100
C02433885547312004416.000    -17625.827       654.553        32.600
R15433960021152198336.000    -26900.014       997.235        32.700
E10433885551519509568.000     -3023.194       112.367        31.700
R18433960021150148544.000    -14043.768       521.483        30.400
C30433885547309380992.000     -6853.251       256.551        29.200
E22433885551509430784.000     10771.940      -397.106        28.600
E19433885551507465984.000      6005.823      -283.347        28.700
C15433885547309808896.000     -2599.350        97.486        28.200
E09433885551523257600.000    -11593.059       447.423        26.700
E26433885551506673472.000     -3497.690       136.415        26.100
E13433885551519808704.000      1264.770       -47.434        26.500
E08433885551519757376.000       371.961       -12.115        26.200
R04433960021151944576.000     11388.800      -494.427        24.300
R16433960021148787264.000    -12398.835       622.525        22.100
E07433885551519970880.000     -4005.370       154.263        21.400
C27433885547311203072.000      5329.734      -211.954        20.200
R03433960021151091328.000      4117.337      -152.464        19.800
> 2015 11 15 17 01     0.0000000  0  26
G05433885547307490176.000     10277.666      -364.793        35.600
G24433885547311037440.000    -17636.258       631.603        27.800
G21433885547306664960.000      -150.334         8.247        28.200
G06433885547309758080.000    -19712.923       705.402        26.700
G12433885547306362304.000     -3431.486       125.588        26.200
G11433885547307092928.000    -12577.639       451.680        24.700
G25433885547307574592.000      5960.608      -237.638        21.900
E29433885551506358784.000    -11808.011       422.892        34.600
E20433885551507772096.000     -2997.241       109.462        33.100
C02433885547312004928.000    -18279.207       654.494        32.600
R15433960021152199104.000    -27897.285       997.670        32.600
E10433885551519509504.000     -3135.343       113.568        31.600
R18433960021150148928.000    -14565.146       521.258        30.400
E22433885551509430208.000     11170.742      -397.860        28.500
C30433885547309381056.000     -7108.488       256.393        29.100
E19433885551507465536.000      6291.474      -285.007        28.600
C15433885547309808832.000     -2695.257        96.694        28.100
E09433885551523257920.000    -12039.342       447.555        26.700
E26433885551506673472.000     -3633.714       137.448        26.200
E13433885551519808448.000      1313.234       -47.211        26.500
E08433885551519757120.000       385.277       -12.255        26.100
R04433960021151943936.000     11857.129      -494.369        24.200
R16433960021148787776.000    -13010.642       623.334        22.300
E07433885551519970880.000     -4158.947       154.961        21.300
C27433885547311202688.000      5542.906      -212.306        20.100
R03433960021151091008.000      4269.308      -152.199        19.700
> 2015 11 15 17 01     1.0000000  0  26
G05433885547307489664.000     10643.526      -364.691        35.600
G24433885547311037952.000    -18265.817       630.344        27.800
G21433885547306664768.000      -157.818         8.900        28.100
G06433885547309758656.000    -20417.146       705.312        26.600
G12433885547306362240.000     -3555.599       125.229        26.200
G11433885547307093248.000    -13028.375       451.985        24.600
G25433885547307574144.000      6199.258      -237.466        21.800
E29433885551506359104.000    -12229.821       422.947        34.600
E20433885551507772032.000     -3105.721       109.684        33.100
C02433885547312005440.000    -18932.678       654.642        32.600
R15433960021152200000.000    -28895.986       997.112        32.500
E10433885551519509440.000     -3248.049       114.111        31.600
R18433960021150149248.000    -15098.973       521.251        30.300
E19433885551507465088.000      6577.028      -284.378        28.600
E22433885551509429632.000     11569.790      -398.044        28.500
C30433885547309381120.000     -7363.534       256.076        29.000
C15433885547309808768.000     -2791.647        97.757        28.100
E09433885551523258176.000    -12485.038       446.527        26.600
E26433885551506673472.000     -3769.957       137.478        26.200
E13433885551519808256.000      1361.225       -46.629        26.500
E08433885551519756992.000       398.479       -12.018        26.100
R04433960021151943296.000     12357.651      -494.774        24.100
R16433960021148788224.000    -13644.340       623.955        22.300
E07433885551519970880.000     -4314.190       157.202        21.200
C27433885547311202304.000      5756.369      -212.483        20.100
R03433960021151090752.000      4421.421      -152.023        19.700
> 2015 11 15 17 01     2.0000000  0  26
G05433885547307489088.000     11009.322      -364.639        35.600
G24433885547311038336.000    -18895.657       631.107        27.800
G21433885547306664576.000      -165.207         8.467        28.000
G06433885547309759168.000    -21121.486       705.524        26.600
G12433885547306362240.000     -3680.359       126.210        26.200
G11433885547307093504.000    -13478.658       451.183        24.500
G25433885547307573696.000      6438.087      -237.792        21.700
E29433885551506359360.000    -12651.636       422.944        34.600
E20433885551507771968.000     -3214.254       109.686        33.000
C02433885547312005952.000    -19586.137       654.578        32.600
R15433960021152200832.000    -29894.545       997.411        32.400
E10433885551519509312.000     -3360.280       113.120        31.500
R18433960021150149632.000    -15602.751       521.378        30.300
E19433885551507464640.000      6862.329      -284.048        28.500
C30433885547309381248.000     -7618.846       256.572        28.900
E22433885551509429056.000     11970.225      -400.002        28.400
C15433885547309808704.000     -2889.168        99.213        28.000
E09433885551523258432.000    -12930.906       447.081        26.600
E26433885551506673408.000     -3905.575       136.431        26.200
E13433885551519808064.000      1409.662       -47.533        26.400
